{
  "events": [
    {
      "id": 1,
      "name": "Angular Connect",
      "date": "9/26/2036",
      "time": "10am",
      "location": {
        "address": "1 London Rd",
        "city": "London",
        "country": "ENGLAND"
      }
    },
    {
      "id": 2,
      "name": "ng-nl",
      "date": "4/15/2037",
      "time": "9am",
      "location": {
        "address": "127 DT ",
        "city": "Amsterdam",
        "country": "NL"
      }
    },
    {
      "id": 3,
      "name": "ng-conf 2037",
      "date": "4/15/2037",
      "time": "9am",
      "location": {
        "address": "The Palatial America Hotel",
        "city": "Salt Lake City",
        "country": "USA"
      }
    },
    {
      "id": 4,
      "name": "UN Angular Summit",
      "date": "6/10/2037",
      "time": "8am",
      "location": {
        "address": "The UN Angular Center",
        "city": "New York",
        "country": "USA"
      }
    },
    {
      "id": 5,
      "name": "Húsvéti ünnep",
      "date": "4/10/2022",
      "time": "8am",
      "location": {
        "address": "13 Vörös tér",
        "city": "Budapest",
        "country": "HUNGARY"
      }
    },
    {
      "id": 6,
      "name": "Farsangi bál",
      "date": "1/26/2035",
      "time": "12am",
      "location": {
        "address": "12 Egri út",
        "city": "Szilvásvárad",
        "country": "HUNGARY"
      }
    },
    {
      "id": 7,
      "name": "Karácsonyi ünnepség",
      "date": "12/25/2020",
      "time": "1pm",
      "location": {
        "address": "8. Miskolci Str.",
        "city": "Szilvásvárad",
        "country": "HUNGARY"
      }
    },
    {
      "id": 8,
      "name": "Pap Gergő",
      "date": "1/26/2035",
      "time": "12am",
      "location": {
        "address": "Rákóczi Ferenc utca 13",
        "city": "Szilvásvárad",
        "country": "HUNGARY"
      }
    }
  ]
}